# 
# Header Description:
# 
# Version: v3.0.3.1 Platform: 12 Manufacturer: Google Model: Pixel 6 Pro
# 
# Raw,utcTimeMillis,TimeNanos,LeapSecond,TimeUncertaintyNanos,FullBiasNanos,BiasNanos,BiasUncertaintyNanos,DriftNanosPerSecond,DriftUncertaintyNanosPerSecond,HardwareClockDiscontinuityCount,Svid,TimeOffsetNanos,State,ReceivedSvTimeNanos,ReceivedSvTimeUncertaintyNanos,Cn0DbHz,PseudorangeRateMetersPerSecond,PseudorangeRateUncertaintyMetersPerSecond,AccumulatedDeltaRangeState,AccumulatedDeltaRangeMeters,AccumulatedDeltaRangeUncertaintyMeters,CarrierFrequencyHz,CarrierCycles,CarrierPhase,CarrierPhaseUncertainty,MultipathIndicator,SnrInDb,ConstellationType,AgcDb,BasebandCn0DbHz,FullInterSignalBiasNanos,FullInterSignalBiasUncertaintyNanos,SatelliteInterSignalBiasNanos,SatelliteInterSignalBiasUncertaintyNanos,CodeType,ChipsetElapsedRealtimeNanos
# 
# UncalAccel,utcTimeMillis,elapsedRealtimeNanos,UncalAccelXMps2,UncalAccelYMps2,UncalAccelZMps2,BiasXMps2,BiasYMps2,BiasZMps2
# 
# UncalGyro,utcTimeMillis,elapsedRealtimeNanos,UncalGyroXRadPerSec,UncalGyroYRadPerSec,UncalGyroZRadPerSec,DriftXRadPerSec,DriftYRadPerSec,DriftZRadPerSec
# 
# UncalMag,utcTimeMillis,elapsedRealtimeNanos,UncalMagXMicroT,UncalMagYMicroT,UncalMagZMicroT,BiasXMicroT,BiasYMicroT,BiasZMicroT
# 
# OrientationDeg,utcTimeMillis,elapsedRealtimeNanos,yawDeg,rollDeg,pitchDeg
# 
# Fix,Provider,LatitudeDegrees,LongitudeDegrees,AltitudeMeters,SpeedMps,AccuracyMeters,BearingDegrees,UnixTimeMillis,SpeedAccuracyMps,BearingAccuracyDegrees,elapsedRealtimeNanos
# 
# Nav,Svid,Type,Status,MessageId,Sub-messageId,Data(Bytes)
# 
# Status,UnixTimeMillis,SignalCount,SignalIndex,ConstellationType,Svid,CarrierFrequencyHz,Cn0DbHz,AzimuthDegrees,ElevationDegrees,UsedInFix,HasAlmanacData,HasEphemerisData,BasebandCn0DbHz
# 
Fix,FLP,46.6105879,-114.1023176,1007.800049,0.439896,4.578000,155.680359,1645820081999,0.22847271,0.0,622116877843753,1.2565722
Fix,GPS,46.6105844,-114.1023168,1006.905294,0.000000,4.648512,0.000000,1645820082999,0.21837053,0.0,622117875047570,4.558473
Fix,FLP,46.6105844,-114.1023164,1007.800049,0.419887,4.589000,161.474960,1645820082999,0.21837053,0.0,622117875047570,1.2665445
Fix,GPS,46.6105811,-114.1023181,1006.474329,0.000000,4.634661,0.000000,1645820083999,20.0,0.0,622118853555953,4.38301
Fix,FLP,46.6105820,-114.1023171,1010.054151,0.356814,4.602000,173.972336,1645820083999,20.0,0.0,622118853555953,1.2766838
Fix,GPS,46.6105806,-114.1023261,1006.161243,0.000000,4.622528,0.000000,1645820084999,0.2452267,0.0,622119871620325,4.223603
Fix,FLP,46.6105803,-114.1023217,1007.800049,0.323372,4.628000,213.197235,1645820084999,0.2452267,0.0,622119871620325,1.28651
Fix,NLP,46.6105571,-114.1027568,1006.800049,0.000000,29.136000,0.000000,1645820084824,0.0,0.0,622119535000000,1.3333334
Fix,GPS,46.6105848,-114.1023320,1005.757028,0.000000,4.485758,0.000000,1645820085999,0.22420013,0.0,622120873168503,3.976974
Fix,FLP,46.6105826,-114.1023306,1007.800049,0.359760,4.615000,272.590973,1645820085999,0.22420013,0.0,622120873168503,1.2411599
Fix,GPS,46.6105876,-114.1023364,1005.362408,0.000000,4.400735,0.000000,1645820086999,0.22493462,0.0,622121872258388,3.7846525
Fix,FLP,46.6105864,-114.1023361,1007.800049,0.458273,4.591000,301.132751,1645820086999,0.22493462,0.0,622121872258388,1.251151
Fix,GPS,46.6105885,-114.1023372,1005.240659,0.000000,4.330611,0.000000,1645820087999,0.2643736,0.0,622122871500901,3.607652
Fix,FLP,46.6105885,-114.1023382,1007.800049,0.357565,4.559000,311.116974,1645820087999,0.2643736,0.0,622122871500901,1.2611433
Fix,GPS,46.6105857,-114.1023399,1005.299630,1.143144,4.328821,194.948578,1645820088999,0.24125937,10.0,622123869024583,3.5302274
Fix,FLP,46.6105835,-114.1023406,1006.800049,1.140943,4.489000,194.023163,1645820088999,0.24125937,10.0,622123869024583,1.2721182
Fix,NLP,46.6105585,-114.1027685,1006.800049,0.000000,29.105000,0.000000,1645820089850,0.0,0.0,622124560000000,1.3333334
Fix,FLP,46.6105768,-114.1023430,1006.800049,1.140896,8.860000,194.023331,1645820089849,0.24125937,10.0,622124560000000,1.2222228
Fix,GPS,46.6105751,-114.1023469,1005.380064,1.678692,4.309217,196.851959,1645820089999,0.25318298,10.0,622124871954393,3.4521115
Fix,FLP,46.6105739,-114.1023459,1006.800049,1.674348,9.511000,195.979416,1645820089999,0.25318298,10.0,622124871954393,1.2253423
Fix,GPS,46.6105470,-114.1023776,1004.942608,3.650889,3.841063,201.744507,1645820090999,0.025271561,10.0,622125868251228,3.221
Fix,FLP,46.6105588,-114.1023599,1006.800049,3.441418,8.160000,197.425232,1645820090999,0.025271561,10.0,622125868251228,1.2353052
Fix,FLP,46.6105454,-114.1023654,1006.800049,3.507323,10.202000,199.569595,1645820091607,0.0,0.0,622126318000000,1.2353052
Fix,FLP,46.6105281,-114.1023744,1006.800049,3.576668,12.168000,202.291351,1645820092204,0.0,0.0,622126915000000,1.2353052
Fix,GPS,46.6105062,-114.1024001,1005.182383,4.770560,3.839736,197.060883,1645820091999,0.03345735,10.0,622126865905037,3.052366
Fix,FLP,46.6104973,-114.1023947,1006.800049,4.602640,13.440000,195.542801,1645820093106,0.0,0.0,622127816000000,1.2452818
Fix,GPS,46.6104644,-114.1024174,1005.214500,5.754760,3.839881,185.630646,1645820092999,0.23998654,10.0,622127860860116,3.0
Fix,GPS,46.6104089,-114.1024199,1005.042080,7.046622,3.841602,175.396805,1645820093999,0.27551445,10.0,622128866313404,3.0
Fix,FLP,46.6104181,-114.1024167,1006.800049,7.030453,12.534000,175.862381,1645820093999,0.27551445,10.0,622128866313404,1.2663326
Fix,NLP,46.6107438,-114.1031839,1007.800049,0.000000,135.600006,0.000000,1645820094882,0.0,0.0,622129592000000,1.3333334
Fix,FLP,46.6103728,-114.1024120,1007.800049,7.030229,13.467000,175.866104,1645820094881,0.27551445,10.0,622129592000000,1.2168471
Fix,GPS,46.6103355,-114.1024064,1005.236129,7.432196,4.289172,170.757004,1645820094999,0.06030001,10.0,622129868971770,3.0
Fix,FLP,46.6103454,-114.1024068,1007.800049,7.412977,12.632000,170.818893,1645820094999,0.06030001,10.0,622129868971770,1.2194368
Fix,GPS,46.6102682,-114.1023944,1005.585568,7.242835,4.087342,172.526215,1645820095999,0.07803684,10.0,622130873168019,3.0
Fix,FLP,46.6102742,-114.1023929,1007.800049,7.245273,14.503000,171.884521,1645820095999,0.07803684,10.0,622130873168019,1.2294787
Fix,GPS,46.6102098,-114.1023843,1005.688717,6.402380,4.608581,172.565063,1645820096999,0.07606013,10.0,622131865535370,3.0
Fix,FLP,46.6102100,-114.1023819,1007.800049,6.405300,12.701000,171.925201,1645820096999,0.07606013,10.0,622131865535370,1.2394023
Fix,GPS,46.6101607,-114.1023807,1005.430657,5.252237,4.672904,174.438370,1645820097999,0.04353895,10.0,622132862924897,3.0
Fix,FLP,46.6101565,-114.1023753,1007.800049,5.254852,9.649000,173.820038,1645820097999,0.04353895,10.0,622132862924897,1.2493763
Fix,GPS,46.6101128,-114.1023735,1005.344984,2.917473,4.672943,176.694016,1645820098999,0.27674177,10.0,622133868084240,3.0
Fix,FLP,46.6101097,-114.1023683,1007.800049,4.842220,12.103000,175.036102,1645820098999,0.0,0.0,622133868084240,1.2649834
Fix,GPS,46.6100876,-114.1023722,1005.488181,1.315122,3.842681,191.288712,1645820099999,0.2247024,10.0,622134863590547,3.0
Fix,FLP,46.6100915,-114.1023692,1007.800049,0.700949,8.505000,80.432457,1645820099999,0.0,0.0,622134863590547,1.2693828
Fix,GPS,46.6100812,-114.1023785,1005.446469,0.996809,3.842863,191.288712,1645820100999,0.06381528,19.14427,622135870357556,3.0
Fix,FLP,46.6100898,-114.1023640,1007.800049,1.141337,10.203000,189.927094,1645820100999,0.0,0.0,622135870357556,1.2794507
Fix,GPS,46.6100642,-114.1023944,1005.680537,2.145457,3.842716,211.788361,1645820101999,0.061050285,10.0,622136868709689,3.0
Fix,FLP,46.6100788,-114.1023679,1007.800049,1.013146,13.201000,182.384537,1645820101999,0.0,0.0,622136868709689,1.2894341
Fix,FLP,46.6100667,-114.1023727,1007.800049,1.977756,13.800000,188.271072,1645820103031,0.0,0.0,622137742000000,1.2894341
Fix,GPS,46.6100488,-114.1024111,1005.515200,3.133078,4.435386,240.862793,1645820102999,0.26279974,10.0,622137861941013,3.0
Fix,FLP,46.6100564,-114.1023841,1007.800049,2.358561,16.117001,215.819672,1645820103469,0.0,0.0,622138179000000,1.304922
Fix,GPS,46.6100359,-114.1024629,1005.831117,4.586770,4.528890,265.587769,1645820103999,0.23168685,10.0,622138861581964,3.0329447
Fix,FLP,46.6100456,-114.1024075,1007.800049,2.934860,16.822001,234.625595,1645820103999,0.0,0.0,622138861581964,1.3093628
Fix,FLP,46.6100355,-114.1024479,1007.800049,3.853748,18.704000,262.058228,1645820105064,0.0,0.0,622139774000000,1.3093628
Fix,GPS,46.6100330,-114.1025584,1006.421036,6.523671,4.292149,269.985016,1645820104999,0.051169552,10.0,622139862521539,3.0
Fix,FLP,46.6100341,-114.1025227,1007.800049,6.522408,17.393999,268.184174,1645820104999,0.051169552,10.0,622139862521539,1.3193723
Fix,GPS,46.6100363,-114.1026804,1006.550809,8.645027,3.759521,269.453735,1645820105999,0.023746438,10.0,622140862198664,3.0
Fix,FLP,46.6100343,-114.1026441,1007.800049,8.644948,16.059000,268.961243,1645820105999,0.023746438,10.0,622140862198664,1.3293691
Fix,GPS,46.6100375,-114.1028064,1006.573992,10.008953,4.043756,266.831726,1645820106999,0.19721086,10.0,622141862188777,3.0
Fix,FLP,46.6100349,-114.1027800,1007.800049,9.998335,14.956000,266.498444,1645820106999,0.19721086,10.0,622141862188777,1.3449244
Fix,GPS,46.6100327,-114.1029474,1006.537381,10.120716,3.707443,266.083038,1645820107999,0.024063833,10.0,622142869530940,3.0
Fix,FLP,46.6100309,-114.1029278,1007.800049,10.119374,13.016000,266.100189,1645820107999,0.024063833,10.0,622142869530940,1.3494422
Fix,GPS,46.6100357,-114.1030824,1006.901877,10.118898,3.971371,269.708252,1645820108999,0.04884248,10.0,622143864814469,3.0
Fix,FLP,46.6100304,-114.1030697,1007.800049,10.120326,8.889000,268.611023,1645820108999,0.04884248,10.0,622143864814469,1.3593951
Fix,GPS,46.6100349,-114.1032235,1007.116923,10.495781,4.053768,269.173737,1645820109999,0.020055205,10.0,622144874235409,3.0
Fix,FLP,46.6100315,-114.1032125,1007.800049,10.495798,3.973000,268.983521,1645820109999,0.020055205,10.0,622144874235409,1.3694894
Fix,GPS,46.6100342,-114.1033638,1007.480895,10.622193,3.670555,269.340363,1645820110999,0.021888558,10.0,622145868218279,3.0
Fix,FLP,46.6100320,-114.1033557,1007.800049,10.622097,3.973000,269.026062,1645820110999,0.021888558,10.0,622145868218279,1.3849849
Fix,GPS,46.6100311,-114.1035062,1007.763764,10.642710,3.760001,268.992706,1645820111999,0.022838954,10.0,622146872819028,3.0
Fix,FLP,46.6100306,-114.1035002,1007.800049,10.641622,3.945000,268.174561,1645820111999,0.022838954,10.0,622146872819028,1.3894752
Fix,GPS,46.6100303,-114.1036505,1008.043230,10.848610,3.832581,269.567871,1645820112999,0.022872964,10.0,622147870459287,3.0
Fix,FLP,46.6100290,-114.1036443,1007.800049,10.849002,3.945000,268.881317,1645820112999,0.022872964,10.0,622147870459287,1.3994516
Fix,GPS,46.6100291,-114.1037928,1008.568999,11.012171,3.666732,269.289032,1645820113999,0.023345659,10.0,622148864211160,3.0
Fix,FLP,46.6100281,-114.1037887,1007.800049,11.012168,3.937000,268.995117,1645820113999,0.023345659,10.0,622148864211160,1.4093891
Fix,GPS,46.6100272,-114.1039397,1009.020380,11.263513,3.760244,268.926697,1645820114999,0.041975778,10.0,622149863240457,3.0
Fix,FLP,46.6100266,-114.1039359,1007.800049,11.262158,3.925000,268.190399,1645820114999,0.041975778,10.0,622149863240457,1.424935
Fix,GPS,46.6100258,-114.1040866,1009.348182,11.240794,4.178237,268.819000,1645820115999,0.01980846,10.0,622150856941060,3.0
Fix,FLP,46.6100246,-114.1040843,1007.800049,11.240461,3.946000,268.050446,1645820115999,0.01980846,10.0,622150856941060,1.434872
Fix,GPS,46.6100256,-114.1042349,1009.672616,11.354916,3.760606,269.451752,1645820116999,0.020067139,10.0,622151864353658,3.0
Fix,FLP,46.6100235,-114.1042336,1007.800049,11.355410,3.946000,268.862946,1645820116999,0.020067139,10.0,622151864353658,1.4393905
Fix,GPS,46.6100253,-114.1043858,1009.886508,11.481921,3.760674,269.535278,1645820117999,0.016571729,10.0,622152861888163,3.0
Fix,FLP,46.6100234,-114.1043837,1007.800049,11.481892,3.946000,269.004639,1645820117999,0.016571729,10.0,622152861888163,1.4493659
Fix,GPS,46.6100241,-114.1045357,1009.988202,11.437581,4.178950,269.678101,1645820118999,0.014938683,10.0,622153862997824,3.0
Fix,FLP,46.6100228,-114.1045349,1007.800049,11.437521,3.992000,269.018555,1645820118999,0.014938683,10.0,622153862997824,1.459377
Fix,GPS,46.6100240,-114.1046909,1010.165009,11.834462,4.179187,269.374512,1645820119999,0.01484155,1.0,622154862631898,3.0
Fix,FLP,46.6100225,-114.1046874,1007.800049,11.834455,4.039000,269.000397,1645820119999,0.01484155,1.0,622154862631898,1.474929
Fix,GPS,46.6100224,-114.1048455,1010.374543,11.851568,4.179425,269.027252,1645820120999,0.014548054,1.0,622155858211000,3.0
Fix,FLP,46.6100215,-114.1048434,1007.800049,11.851568,4.067000,269.000000,1645820120999,0.014548054,1.0,622155858211000,1.4848847
Fix,GPS,46.6100227,-114.1049999,1010.702370,11.802294,3.820870,269.429596,1645820121999,0.014327412,1.0,622156864651390,3.0
Fix,FLP,46.6100210,-114.1049998,1014.950336,11.802294,4.067000,269.000000,1645820121999,0.014327412,1.0,622156864651390,1.490037
Fix,GPS,46.6100234,-114.1051552,1011.065256,11.877476,4.179901,270.215576,1645820122999,0.015663464,1.0,622157862173688,3.0
Fix,FLP,46.6100211,-114.1051545,1015.350718,11.877475,4.123000,269.998169,1645820122999,0.015663464,1.0,622157862173688,1.5059927
Fix,GPS,46.6100232,-114.1053126,1011.319972,11.982120,3.839740,269.895966,1645820123999,0.014779029,1.0,622158863257836,3.0
Fix,FLP,46.6100220,-114.1053113,1015.422845,11.982112,4.067000,269.001862,1645820123999,0.014779029,1.0,622158863257836,1.5149353
Fix,NLP,46.6107732,-114.1031991,1006.200012,0.000000,116.099998,0.000000,1645820123785,0.0,0.0,622158495000000,1.3333334
Fix,GPS,46.6100231,-114.1054698,1011.549851,12.115272,4.298203,269.518005,1645820124999,0.015744362,1.0,622159868257959,3.0
Fix,FLP,46.6100211,-114.1055042,1015.472824,12.115270,4.059000,269.000031,1645820124999,0.015744362,1.0,622159868257959,1.2359552
Fix,GPS,46.6100225,-114.1056265,1011.510427,12.183775,3.844729,269.478943,1645820125999,0.25703737,1.2490832,622160814457788,3.0
Fix,FLP,46.6100207,-114.1056423,1015.664789,12.183558,4.036000,269.000000,1645820125999,0.25703737,1.2490832,622160814457788,1.2398616
Fix,GPS,46.6100217,-114.1057838,1011.554539,12.257519,3.847678,269.820740,1645820126999,0.25297868,1.2298617,622161808759953,3.0
Fix,FLP,46.6100201,-114.1057934,1015.422845,12.257309,3.996000,269.000000,1645820126999,0.25297868,1.2298617,622161808759953,1.2498046
Fix,GPS,46.6100218,-114.1059431,1011.633200,12.353935,3.845027,270.236359,1645820127999,0.25676486,1.239693,622162808270289,3.0
Fix,FLP,46.6100198,-114.1059491,1015.231621,12.353655,3.996000,269.996979,1645820127999,0.25676486,1.239693,622162808270289,1.2597998
Fix,GPS,46.6100224,-114.1061063,1011.548821,12.599680,3.845176,270.062622,1645820128999,0.24237555,1.1390357,622163807618963,3.0
Fix,FLP,46.6100210,-114.1061088,1015.231621,12.599062,3.966000,270.000000,1645820128999,0.24237555,1.1390357,622163807618963,1.2697933
Fix,GPS,46.6100223,-114.1062717,1011.744190,12.659876,3.845325,269.378906,1645820129999,0.2592551,1.1973495,622164815589667,3.0
Fix,FLP,46.6100216,-114.1062736,1015.422845,12.659698,3.966000,269.002930,1645820129999,0.2592551,1.1973495,622164815589667,1.2854286
Fix,GPS,46.6100203,-114.1064372,1012.052617,12.556452,3.892033,268.623138,1645820130999,0.29936582,1.5176702,622165810740750,3.0
Fix,FLP,46.6100199,-114.1064380,1015.422845,12.556835,3.900000,268.004791,1645820130999,0.29936582,1.5176702,622165810740750,1.2953801
Fix,GPS,46.6100166,-114.1066007,1012.487254,12.403899,3.897291,269.300293,1645820131999,0.26598245,1.2764341,622166815380154,3.0034354
Fix,FLP,46.6100162,-114.1066020,1015.422845,12.404349,3.900000,268.996765,1645820131999,0.26598245,1.2764341,622166815380154,1.2998708
Fix,GPS,46.6100141,-114.1067662,1013.098946,12.158057,3.906179,269.347870,1645820132999,0.25438267,1.250764,622167820078519,3.0611644
Fix,FLP,46.6100142,-114.1067657,1015.422845,12.158731,3.901000,269.000000,1645820132999,0.25438267,1.250764,622167820078519,1.3099178
Fix,GPS,46.6100123,-114.1069263,1013.383865,12.126421,3.905982,269.262390,1645820133999,0.2577456,1.2695904,622168817271838,3.1249428
Fix,FLP,46.6100123,-114.1069253,1015.231621,12.126513,3.902000,269.000000,1645820133999,0.2577456,1.2695904,622168817271838,1.3198898
Fix,GPS,46.6100115,-114.1070859,1013.763493,12.008863,3.878532,270.175781,1645820134999,0.27235016,1.4140728,622169815221139,3.1631346
Fix,FLP,46.6100109,-114.1070847,1015.231621,12.009232,3.902000,269.996216,1645820134999,0.27235016,1.4140728,622169815221139,1.3298693
Fix,GPS,46.6100132,-114.1072378,1014.142454,11.816894,3.904044,269.948151,1645820135999,0.2562454,1.2749422,622170810554269,3.1973078
Fix,FLP,46.6100119,-114.1072397,1015.422845,11.817430,3.902000,269.003021,1645820135999,0.2562454,1.2749422,622170810554269,1.3453783
Fix,GPS,46.6100136,-114.1073834,1014.446359,11.522111,3.849561,269.180206,1645820136999,0.25756174,1.332563,622171812522694,3.2165906
Fix,FLP,46.6100116,-114.1073897,1015.422845,11.522939,3.902000,269.000000,1645820136999,0.25756174,1.332563,622171812522694,1.3553979
Fix,GPS,46.6100130,-114.1075307,1014.621301,11.412222,3.849750,268.980438,1645820137999,0.2726257,1.4833137,622172814802765,3.2258387
Fix,FLP,46.6100112,-114.1075364,1015.422845,11.412558,3.902000,268.003723,1645820137999,0.2726257,1.4833137,622172814802765,1.3598651
Fix,GPS,46.6100107,-114.1076763,1015.083818,11.478527,3.856388,269.633179,1645820138999,0.28819117,1.5640097,622173805232412,3.2260196
Fix,FLP,46.6100091,-114.1076808,1015.422845,11.478282,3.901000,268.995789,1645820138999,0.28819117,1.5640097,622173805232412,1.3697693
Fix,GPS,46.6100092,-114.1078278,1015.487415,11.720297,3.897511,269.479156,1645820139999,0.30549306,1.6913998,622174809521475,3.2220259
Fix,FLP,46.6100081,-114.1078300,1015.231621,11.719341,3.900000,269.000000,1645820139999,0.30549306,1.6913998,622174809521475,1.3798124
Fix,GPS,46.6100084,-114.1079849,1016.005200,11.761701,3.946017,269.641418,1645820140999,0.29700106,1.5760683,622175808855094,3.2417006
Fix,FLP,46.6100072,-114.1079841,1015.231621,11.761542,3.908000,269.000031,1645820140999,0.29700106,1.5760683,622175808855094,1.3898057
Fix,GPS,46.6100072,-114.1081422,1016.512805,11.908867,4.031071,269.822571,1645820141999,0.29753125,1.5776118,622176805417879,3.2330153
Fix,FLP,46.6100062,-114.1081397,1015.422845,11.908311,3.929000,269.000031,1645820141999,0.29753125,1.5776118,622176805417879,1.4053268
Fix,GPS,46.6100060,-114.1082954,1016.947505,11.736348,4.008038,269.341064,1645820142999,0.2967757,1.5700369,622177810834627,3.232537
Fix,FLP,46.6100051,-114.1082960,1015.422845,11.736985,3.947000,269.000000,1645820142999,0.2967757,1.5700369,622177810834627,1.4153811
Fix,GPS,46.6100057,-114.1084418,1017.471834,11.501032,3.867714,268.846100,1645820143999,0.2859341,1.5296506,622178805584221,3.22042
Fix,FLP,46.6100043,-114.1084457,1015.422845,11.501848,3.957000,268.004120,1645820143999,0.2859341,1.5296506,622178805584221,1.4253285
Fix,GPS,46.6100042,-114.1085850,1017.978367,11.381388,3.847562,269.601563,1645820144999,0.29623437,1.6292115,622179808255852,3.2046056
Fix,FLP,46.6100023,-114.1085915,1015.422845,11.381825,3.947000,268.995544,1645820144999,0.29623437,1.6292115,622179808255852,1.4297996
Fix,GPS,46.6100043,-114.1087399,1018.527182,11.664990,3.847712,271.971588,1645820145999,0.28198394,1.5165108,622180810573276,3.1698275
Fix,FLP,46.6100022,-114.1087404,1015.422845,11.664008,3.947000,270.992126,1645820145999,0.28198394,1.5165108,622180810573276,1.4398228
Fix,GPS,46.6100072,-114.1089038,1018.946948,11.869272,3.942331,270.905945,1645820146999,0.27370247,1.4041698,622181807449294,3.1855426
Fix,FLP,46.6100054,-114.1088977,1015.231621,11.868612,3.930000,270.003540,1645820146999,0.27370247,1.4041698,622181807449294,1.4497916
Fix,GPS,46.6100074,-114.1090629,1019.446290,11.926320,3.887559,269.705963,1645820147999,0.24947378,1.2464973,622182809165888,3.1810415
Fix,FLP,46.6100063,-114.1090577,1015.231621,11.926165,3.925000,269.002869,1645820147999,0.24947378,1.2464973,622182809165888,1.4598087
Fix,GPS,46.6100072,-114.1092246,1019.980089,11.370256,3.854172,270.549133,1645820148999,0.26766685,1.4406427,622183809844193,3.1998188
Fix,FLP,46.6100057,-114.1092187,1015.422845,11.371949,3.908000,269.996368,1645820148999,0.26766685,1.4406427,622183809844193,1.4753711
Fix,GPS,46.6100085,-114.1093697,1020.422936,10.625365,3.941740,271.269379,1645820149999,0.26852003,1.5239769,622184808402258,3.2429595
Fix,FLP,46.6100069,-114.1093685,1015.422845,10.627660,3.916000,270.996368,1645820149999,0.26852003,1.5239769,622184808402258,1.4853567
Fix,GPS,46.6100099,-114.1095065,1020.991738,10.112762,3.860930,270.810486,1645820150999,0.26760587,1.6042776,622185807417761,3.2672613
Fix,FLP,46.6100092,-114.1095071,1015.422845,10.114331,3.914000,270.003571,1645820150999,0.26760587,1.6042776,622185807417761,1.4953469
Fix,GPS,46.6100098,-114.1096281,1021.834092,9.452954,3.931085,271.725189,1645820151999,0.27193964,1.8379242,622186807779375,3.260114
Fix,FLP,46.6100095,-114.1096344,1015.422845,9.455025,3.914000,270.995880,1645820151999,0.27193964,1.8379242,622186807779375,1.4997948
Fix,GPS,46.6100134,-114.1097488,1022.014734,9.010433,4.008431,271.966492,1645820152999,0.2691549,1.836373,622187807559527,3.3257103
Fix,FLP,46.6100120,-114.1097540,1015.422845,9.011803,3.930000,271.000031,1645820152999,0.2691549,1.836373,622187807559527,1.5097927
Fix,GPS,46.6100166,-114.1098607,1022.049092,8.476984,4.071566,268.673279,1645820153999,0.31761256,2.4893613,622188808167396,3.423616
Fix,FLP,46.6100149,-114.1098670,1015.422845,8.479196,3.958000,268.018158,1645820153999,0.31761256,2.4893613,622188808167396,1.5197988
Fix,GPS,46.6100080,-114.1099619,1021.706324,7.936040,4.151099,259.812897,1645820154999,0.3169469,2.4789808,622189808264036,3.45549
Fix,FLP,46.6100103,-114.1099708,1029.052258,7.937758,4.000000,259.046997,1645820154999,0.3169469,2.4789808,622189808264036,1.530217
Fix,NLP,46.6100527,-114.1099906,1027.599976,0.000000,40.577000,0.000000,1645820155890,0.0,0.0,622190600000000,1.3333334
Fix,FLP,46.6100003,-114.1100437,1027.599976,7.935338,5.750000,259.046417,1645820155889,0.3169469,2.4789808,622190600000000,1.2116015
Fix,GPS,46.6099859,-114.1100559,1020.908078,7.809343,3.912716,243.297104,1645820155999,0.28481954,2.1085386,622190811491128,3.4309976
Fix,FLP,46.6099903,-114.1100599,1027.599976,7.808333,5.753000,243.080536,1645820155999,0.28481954,2.1085386,622190811491128,1.2195572
Fix,GPS,46.6099469,-114.1101348,1020.918870,7.531702,3.979852,228.215729,1645820156999,0.36584428,2.7281373,622191816153685,3.4471104
Fix,FLP,46.6099532,-114.1101441,1027.599976,7.531775,5.761000,228.085190,1645820156999,0.36584428,2.7281373,622191816153685,1.2288287
Fix,GPS,46.6098860,-114.1101938,1020.892825,8.392426,3.939308,205.919922,1645820157999,0.4203859,2.654464,622192797572143,3.4443896
Fix,FLP,46.6098985,-114.1102061,1027.599976,8.380797,5.500000,205.143143,1645820157999,0.4203859,2.654464,622192797572143,1.2386428
Fix,GPS,46.6097978,-114.1102267,1020.659606,9.097342,3.915752,192.388489,1645820158999,0.44026694,2.7366326,622193807186686,3.4758842
Fix,FLP,46.6098153,-114.1102412,1027.599976,9.089877,5.487000,192.093964,1645820158999,0.44026694,2.7366326,622193807186686,1.248739
Fix,GPS,46.6096913,-114.1102229,1020.432808,10.220563,3.853929,182.929932,1645820159999,0.3724305,1.9808807,622194818300171,3.3840961
Fix,FLP,46.6097150,-114.1102468,1027.599976,10.213359,5.681000,182.045914,1645820159999,0.3724305,1.9808807,622194818300171,1.2532945
Fix,GPS,46.6095831,-114.1102075,1020.549662,11.247924,3.854117,178.285889,1645820160999,0.37032855,1.8461671,622195815239096,3.3616557
Fix,FLP,46.6096053,-114.1102317,1027.599976,11.241817,3.927000,178.020294,1645820160999,0.37032855,1.8461671,622195815239096,1.2632638
Fix,GPS,46.6094700,-114.1101924,1020.770005,11.922748,3.850099,178.141190,1645820161999,0.36310887,1.6405758,622196811208538,3.337189
Fix,FLP,46.6094890,-114.1102113,1027.599976,11.918980,3.922000,177.999847,1645820161999,0.36310887,1.6405758,622196811208538,1.2732236
Fix,GPS,46.6093494,-114.1101784,1020.735825,12.424073,3.967935,178.714325,1645820162999,0.36569968,1.5349066,622197810950848,3.3757918
Fix,FLP,46.6093673,-114.1101935,1027.599976,12.421270,3.916000,177.999817,1645820162999,0.36569968,1.5349066,622197810950848,1.283221
Fix,GPS,46.6092291,-114.1101672,1020.459091,13.020265,4.068071,179.051712,1645820163999,0.3534711,1.3664292,622198809261599,3.390214
Fix,FLP,46.6092438,-114.1101786,1027.599976,13.017114,3.947000,178.995956,1645820163999,0.3534711,1.3664292,622198809261599,1.2987597
Fix,GPS,46.6091040,-114.1101509,1020.141089,13.232376,4.111369,178.151718,1645820164999,0.35580903,1.379686,622199810507897,3.3894312
Fix,FLP,46.6091164,-114.1101645,1027.599976,13.231259,3.974000,178.004120,1645820164999,0.35580903,1.379686,622199810507897,1.3087722
Fix,GPS,46.6089785,-114.1101428,1020.019410,13.518093,4.261841,178.928665,1645820165999,0.36253506,1.391291,622200811987918,3.4011493
Fix,FLP,46.6089888,-114.1101515,1027.599976,13.516533,4.034000,177.999924,1645820165999,0.36253506,1.391291,622200811987918,1.318787
Fix,GPS,46.6088510,-114.1101366,1020.136954,13.435561,4.345328,179.234406,1645820166999,0.35125747,1.3984026,622201819349776,3.4268491
Fix,FLP,46.6088595,-114.1101414,1027.599976,13.435991,4.150000,178.995453,1645820166999,0.35125747,1.3984026,622201819349776,1.3288606
Fix,GPS,46.6087263,-114.1101303,1020.749245,13.447279,3.900547,178.167328,1645820167999,0.33994237,1.3085408,622202812721643,3.358877
Fix,FLP,46.6087335,-114.1101347,1027.599976,13.447240,4.137000,178.004013,1645820167999,0.33994237,1.3085408,622202812721643,1.3332387
Fix,GPS,46.6086052,-114.1101227,1021.633109,12.916429,4.026488,178.299713,1645820168999,0.36608475,1.4796154,622203809084355,3.3428688
Fix,FLP,46.6086095,-114.1101260,1027.599976,12.919479,4.118000,178.000076,1645820168999,0.36608475,1.4796154,622203809084355,1.3432024
Fix,GPS,46.6084916,-114.1101134,1022.135020,12.470626,4.000160,178.766022,1645820169999,0.37036324,1.5572947,622204799901983,3.265655
Fix,FLP,46.6084932,-114.1101171,1027.599976,12.473288,4.107000,178.000046,1645820169999,0.37036324,1.5572947,622204799901983,1.3531106
Fix,GPS,46.6083818,-114.1101057,1022.495813,12.122044,4.007216,178.953949,1645820170999,0.3673204,1.6282017,622205814000901,3.251992
Fix,FLP,46.6083805,-114.1101088,1027.599976,12.123992,4.055000,178.000015,1645820170999,0.3673204,1.6282017,622205814000901,1.3632516
Fix,GPS,46.6082711,-114.1100980,1022.286431,12.330805,3.873109,179.182724,1645820171999,0.34219527,1.4862752,622206808279954,3.2403061
Fix,FLP,46.6082716,-114.1101009,1027.599976,12.329757,4.029000,178.995651,1645820171999,0.34219527,1.4862752,622206808279954,1.3731943
Fix,GPS,46.6081590,-114.1100971,1022.136665,12.433738,3.851736,178.866608,1645820172999,0.3447168,1.4779027,622207807148403,3.167858
Fix,FLP,46.6081600,-114.1100976,1027.599976,12.433210,3.955000,178.004318,1645820172999,0.3447168,1.4779027,622207807148403,1.3887386
Fix,GPS,46.6080421,-114.1100937,1022.139036,12.796586,3.851886,179.575928,1645820173999,0.3419005,1.3872775,622208806807909,3.1518228
Fix,FLP,46.6080455,-114.1100928,1027.599976,12.794779,3.955000,178.996033,1645820173999,0.3419005,1.3872775,622208806807909,1.3987352
Fix,GPS,46.6079208,-114.1100895,1022.180577,13.340989,3.852035,179.484299,1645820174999,0.32726032,1.2683219,622209803335416,3.1281824
Fix,FLP,46.6079263,-114.1100897,1027.599976,13.338501,3.921000,178.999954,1645820174999,0.32726032,1.2683219,622209803335416,1.4087005
Fix,GPS,46.6077960,-114.1100835,1022.448505,13.663117,3.852184,178.380127,1645820175999,0.32926363,1.2524178,622210808055957,3.1063237
Fix,FLP,46.6078013,-114.1100852,1027.599976,13.661646,3.917000,178.003632,1645820175999,0.32926363,1.2524178,622210808055957,1.4187477
Fix,GPS,46.6076694,-114.1100766,1022.948030,13.862053,3.852334,177.446838,1645820176999,0.35345384,1.3343811,622211810044931,3.0791562
Fix,FLP,46.6076743,-114.1100779,1027.599976,13.861008,3.900000,177.004333,1645820176999,0.35345384,1.3343811,622211810044931,1.4287676
Fix,GPS,46.6075428,-114.1100653,1023.474190,14.094384,3.857349,177.873566,1645820177999,0.3540975,1.351236,622212808823129,3.0999575
Fix,FLP,46.6075467,-114.1100670,1027.599976,14.093153,3.900000,176.999985,1645820177999,0.3540975,1.351236,622212808823129,1.4387553
Fix,GPS,46.6074139,-114.1100578,1023.807279,14.317049,3.857541,178.991608,1645820178999,0.3484612,1.3369728,622213808065032,3.0859094
Fix,FLP,46.6074173,-114.1100576,1027.599976,14.315889,3.900000,177.995316,1645820178999,0.3484612,1.3369728,622213808065032,1.4431921
Fix,GPS,46.6072858,-114.1100546,1023.580465,14.488961,3.852782,178.986115,1645820179999,0.34259996,1.289161,622214807309214,3.0574455
Fix,FLP,46.6072874,-114.1100526,1027.599976,14.488102,3.900000,177.999985,1645820179999,0.34259996,1.289161,622214807309214,1.4531846
Fix,GPS,46.6071566,-114.1100516,1023.728038,14.421345,3.852931,179.147461,1645820180999,0.34207442,1.2703886,622215808797374,3.0278938
Fix,FLP,46.6071568,-114.1100485,1027.599976,14.421662,3.900000,178.995667,1645820180999,0.34207442,1.2703886,622215808797374,1.4631995
Fix,GPS,46.6070276,-114.1100499,1024.009186,14.361132,3.853081,178.521576,1645820181999,0.33384022,1.2580495,622216815257457,3.0226352
Fix,FLP,46.6070268,-114.1100473,1027.599976,14.361406,3.900000,178.004196,1645820181999,0.33384022,1.2580495,622216815257457,1.4732641
Fix,GPS,46.6068991,-114.1100471,1023.986769,14.591879,3.853231,178.720703,1645820182999,0.32464948,1.177438,622217817915783,3.0
Fix,FLP,46.6068981,-114.1100436,1027.599976,14.590851,3.900000,178.000015,1645820182999,0.32464948,1.177438,622217817915783,1.4888463
Fix,GPS,46.6067686,-114.1100446,1023.852777,14.727468,3.853381,179.238922,1645820183999,0.33127263,1.1696697,622218811023938,3.0
Fix,FLP,46.6067682,-114.1100404,1027.599976,14.726807,3.900000,178.996140,1645820183999,0.33127263,1.1696697,622218811023938,1.4987774
Fix,GPS,46.6066359,-114.1100437,1023.768306,14.837644,3.853531,179.533813,1645820184999,0.33117792,1.1459777,622219817763155,3.0
Fix,FLP,46.6066353,-114.1100400,1027.599976,14.837132,3.900000,179.000000,1645820184999,0.33117792,1.1459777,622219817763155,1.5088447
Fix,GPS,46.6065018,-114.1100407,1023.741839,14.821468,3.853681,179.294128,1645820185999,0.3226324,1.1125505,622220812450737,3.0
Fix,FLP,46.6065022,-114.1100384,1027.599976,14.821539,3.900000,179.000015,1645820185999,0.3226324,1.1125505,622220812450737,1.5187917
Fix,GPS,46.6063687,-114.1100372,1023.761713,14.595187,3.853831,179.613037,1645820186999,0.33424583,1.19901,622221820583306,3.0
Fix,FLP,46.6063682,-114.1100360,1027.599976,14.596243,3.900000,179.000015,1645820186999,0.33424583,1.19901,622221820583306,1.528873
Fix,GPS,46.6062295,-114.1100387,1023.564497,14.730159,3.853981,179.905533,1645820187999,0.31003457,1.1675173,622222819711603,3.0
Fix,FLP,46.6062336,-114.1100354,1027.599976,14.729619,3.900000,179.000015,1645820187999,0.31003457,1.1675173,622222819711603,1.5388643
Fix,GPS,46.6060936,-114.1100388,1023.634215,15.086769,3.854131,179.877869,1645820188999,0.29376742,1.077038,622223811823013,3.0
Fix,FLP,46.6060983,-114.1100351,1027.599976,15.085444,3.900000,179.000015,1645820188999,0.29376742,1.077038,622223811823013,1.549167
Fix,NLP,46.6054204,-114.1111132,1028.900024,0.000000,82.500000,0.000000,1645820189706,0.0,0.0,622224416000000,1.3333334
Fix,FLP,46.6060250,-114.1100336,1028.900024,15.082563,5.209000,179.000351,1645820189706,0.29376742,1.077038,622224416000000,1.2134415
Fix,GPS,46.6059534,-114.1100367,1023.591043,15.570911,3.854281,178.559952,1645820189999,0.29408976,1.0327607,622224813702408,3.0
Fix,FLP,46.6059628,-114.1100336,1028.900024,15.568493,5.022000,178.007050,1645820189999,0.29408976,1.0327607,622224813702408,1.2102959
Fix,GPS,46.6058104,-114.1100287,1023.379479,15.893964,3.854431,178.705078,1645820190999,0.29876876,1.0252668,622225815988378,3.0
Fix,FLP,46.6058171,-114.1100274,1028.900024,15.892745,5.209000,178.000015,1645820190999,0.29876876,1.0252668,622225815988378,1.2195559
Fix,GPS,46.6056694,-114.1100220,1023.104330,15.036779,3.854582,178.031082,1645820191999,0.30652303,1.1146958,622226808843685,3.0
Fix,FLP,46.6056726,-114.1100210,1028.900024,15.040254,5.022000,178.000046,1645820191999,0.30652303,1.1146958,622226808843685,1.2294843
Fix,GPS,46.6055393,-114.1100144,1023.091386,13.837337,3.854732,177.559296,1645820192999,0.29870492,1.2272123,622227819173234,3.0
Fix,FLP,46.6055375,-114.1100142,1027.599976,13.841800,5.022000,177.003998,1645820192999,0.29870492,1.2272123,622227819173234,1.2395877
Fix,GPS,46.6054220,-114.1100086,1023.073445,12.595493,3.854882,177.489029,1645820193999,0.31396827,1.38361,622228819342750,3.0
Fix,FLP,46.6054171,-114.1100065,1027.599976,12.600706,5.209000,177.000107,1645820193999,0.31396827,1.38361,622228819342750,1.255145
Fix,GPS,46.6053133,-114.1100038,1023.093952,11.608584,3.855032,178.939224,1645820194999,0.29321036,1.3913072,622229816876889,3.0
Fix,FLP,46.6053083,-114.1100005,1028.900024,11.612212,3.900000,177.996368,1645820194999,0.29321036,1.3913072,622229816876889,1.2651203
Fix,GPS,46.6052137,-114.1100021,1023.041540,10.820133,3.855182,179.231232,1645820195999,0.28945273,1.4649705,622230811780210,3.0
Fix,FLP,46.6052086,-114.1099983,1028.900024,10.822971,3.900000,178.996490,1645820195999,0.28945273,1.4649705,622230811780210,1.2750694
Fix,GPS,46.6051221,-114.1100028,1023.112381,10.415303,3.855332,178.906921,1645820196999,0.30802876,1.6701616,622231816246600,3.0610683
Fix,FLP,46.6051158,-114.1099989,1028.900024,10.416919,3.900000,178.004059,1645820196999,0.30802876,1.6701616,622231816246600,1.285114
Fix,GPS,46.6050296,-114.1100008,1022.910182,10.518822,3.855483,179.293945,1645820197999,0.29657272,1.5401621,622232817035541,3.0741465
Fix,FLP,46.6050254,-114.1099972,1028.900024,10.518428,3.900000,178.996658,1645820197999,0.29657272,1.5401621,622232817035541,1.2951219
Fix,GPS,46.6049349,-114.1099959,1022.751539,10.656667,3.855633,177.915100,1645820198999,0.34062353,1.6320605,622233818070088,3.090202
Fix,FLP,46.6049326,-114.1099952,1028.900024,10.655971,3.900000,177.007675,1645820198999,0.34062353,1.6320605,622233818070088,1.3051323
Fix,GPS,46.6048361,-114.1099863,1022.659750,11.079809,3.855783,177.397202,1645820199999,0.33736205,1.5507395,622234800649963,3.0730145
Fix,FLP,46.6048374,-114.1099873,1028.900024,11.077695,3.900000,176.999908,1645820199999,0.33736205,1.5507395,622234800649963,1.3149581
Fix,GPS,46.6047328,-114.1099767,1022.671372,11.598948,3.855933,177.594254,1645820200999,0.34451273,1.5035715,622235809517761,3.072731
Fix,FLP,46.6047351,-114.1099783,1028.900024,11.596377,3.900000,176.999847,1645820200999,0.34451273,1.5035715,622235809517761,1.3250467
Fix,GPS,46.6046214,-114.1099678,1022.335506,12.277171,3.856084,178.549149,1645820201999,0.35452893,1.4993131,622236808958558,3.0494878
Fix,FLP,46.6046266,-114.1099692,1028.900024,12.273538,3.900000,177.995743,1645820201999,0.35452893,1.4993131,622236808958558,1.335041
Fix,GPS,46.6045045,-114.1099670,1021.894617,12.934858,3.856235,178.940567,1645820202999,0.34704834,1.3928331,622237812515239,3.0527697
Fix,FLP,46.6045108,-114.1099651,1028.900024,12.931522,3.900000,177.999908,1645820202999,0.34704834,1.3928331,622237812515239,1.339521
Fix,GPS,46.6043824,-114.1099635,1021.218028,13.196854,3.856385,178.658691,1645820203999,0.31154606,1.2623985,622238807850771,3.0160656
Fix,FLP,46.6043893,-114.1099611,1028.900024,13.195765,3.900000,177.999985,1645820203999,0.31154606,1.2623985,622238807850771,1.3494744
Fix,GPS,46.6042597,-114.1099614,1021.247729,13.583856,3.856536,178.290268,1645820204999,0.31951854,1.2428613,622239813314842,3.0
Fix,FLP,46.6042654,-114.1099579,1028.900024,13.582201,3.900000,177.999985,1645820204999,0.31951854,1.2428613,622239813314842,1.3595291
Fix,GPS,46.6041356,-114.1099563,1020.981829,13.972622,3.856687,179.098038,1645820205999,0.3232192,1.1911021,622240818660749,3.0
Fix,FLP,46.6041394,-114.1099537,1028.900024,13.970902,3.900000,178.996536,1645820205999,0.3232192,1.1911021,622240818660749,1.3751382
Fix,GPS,46.6040063,-114.1099534,1020.686991,14.579735,3.856838,178.814667,1645820206999,0.30772707,1.1277971,622241811793602,3.0
Fix,FLP,46.6040109,-114.1099518,1028.900024,14.577256,3.900000,178.003357,1645820206999,0.30772707,1.1277971,622241811793602,1.3850695
Fix,GPS,46.6038708,-114.1099493,1020.502276,15.400521,3.856988,178.535812,1645820207999,0.32956454,1.1163149,622242814700097,3.0
Fix,FLP,46.6038755,-114.1099470,1028.900024,15.396754,3.900000,177.999939,1645820207999,0.32956454,1.1163149,622242814700097,1.3950986
Fix,GPS,46.6037290,-114.1099441,1020.227967,15.755882,3.863350,179.321609,1645820208999,0.30801108,1.0435323,622243815126367,3.0
Fix,FLP,46.6037334,-114.1099418,1028.900024,15.754433,3.900000,178.996582,1645820208999,0.30801108,1.0435323,622243815126367,1.4051028
Fix,GPS,46.6035839,-114.1099401,1020.212627,16.013098,3.857291,179.182343,1645820209999,0.3127031,1.0302036,622244810930852,3.0
Fix,FLP,46.6035885,-114.1099391,1028.900024,16.012022,3.900000,178.999985,1645820209999,0.3127031,1.0302036,622244810930852,1.4150609
Fix,GPS,46.6034376,-114.1099368,1020.056835,16.257565,3.863742,178.341339,1645820210999,0.32832754,1.078819,622245819572413,3.0
Fix,FLP,46.6034407,-114.1099360,1028.900024,16.256460,3.900000,178.003845,1645820210999,0.32832754,1.078819,622245819572413,1.4251473
Fix,GPS,46.6032893,-114.1099299,1019.891195,16.535334,3.863938,178.101349,1645820211999,0.3162437,1.0359294,622246799690415,3.0
Fix,FLP,46.6032938,-114.1099293,1028.900024,16.534109,3.900000,178.000000,1645820211999,0.3162437,1.0359294,622246799690415,1.4349484
Fix,GPS,46.6031392,-114.1099226,1019.748647,16.591183,3.857744,177.837219,1645820212999,0.3337556,1.0543098,622247811369777,3.0
Fix,FLP,46.6031415,-114.1099220,1028.900024,16.590923,3.900000,177.003860,1645820212999,0.3337556,1.0543098,622247811369777,1.4450653
Fix,GPS,46.6029881,-114.1099140,1019.725452,16.747185,3.857896,177.989014,1645820213999,0.32939455,1.0021762,622248800992214,3.0
Fix,FLP,46.6029913,-114.1099122,1028.900024,16.746458,3.900000,177.000000,1645820213999,0.32939455,1.0021762,622248800992214,1.4549614
Fix,GPS,46.6028375,-114.1099079,1019.807888,16.834826,3.858047,177.938065,1645820214999,0.333027,1.03671,622249808496365,3.0
Fix,FLP,46.6028387,-114.1099039,1028.900024,16.834417,3.900000,177.000000,1645820214999,0.333027,1.03671,622249808496365,1.4650365
Fix,GPS,46.6026841,-114.1099014,1019.789719,16.679440,3.858199,178.224152,1645820215999,0.2992668,1.0,622250810561592,3.0
Fix,FLP,46.6026858,-114.1098964,1028.900024,16.680017,3.900000,177.996399,1645820215999,0.2992668,1.0,622250810561592,1.4750571
Fix,GPS,46.6025343,-114.1098960,1019.859793,16.728292,3.858350,178.297775,1645820216999,0.303426,1.0,622251809698677,3.0
Fix,FLP,46.6025352,-114.1098920,1028.900024,16.728104,3.900000,178.000000,1645820216999,0.303426,1.0,622251809698677,1.4850485
Fix,GPS,46.6023826,-114.1098918,1019.602912,16.881536,3.858501,178.698425,1645820217999,0.30117762,1.0,622252808669015,3.0
Fix,FLP,46.6023839,-114.1098877,1028.900024,16.880945,3.900000,178.000015,1645820217999,0.30117762,1.0,622252808669015,1.4894826
Fix,GPS,46.6022296,-114.1098869,1019.421970,17.047022,3.858653,178.427094,1645820218999,0.3082221,1.0,622253809661650,3.0
Fix,FLP,46.6022309,-114.1098831,1028.900024,17.046354,3.900000,178.000015,1645820218999,0.3082221,1.0,622253809661650,1.4994925
Fix,GPS,46.6020759,-114.1098827,1019.642582,17.123604,3.858804,178.190536,1645820219999,0.2991958,1.0,622254808313140,3.0
Fix,FLP,46.6020769,-114.1098786,1028.900024,17.123310,3.900000,178.000015,1645820219999,0.2991958,1.0,622254808313140,1.5150347
Fix,GPS,46.6019214,-114.1098778,1019.668204,17.221478,3.858956,178.588013,1645820220999,0.3057602,1.0,622255808415110,3.0
Fix,FLP,46.6019222,-114.1098739,1028.900024,17.221088,3.900000,178.000015,1645820220999,0.3057602,1.0,622255808415110,1.5250357
Fix,GPS,46.6017658,-114.1098720,1019.602693,17.451639,3.859108,179.274597,1645820221999,0.2962142,1.0,622256808256541,3.0
Fix,FLP,46.6017667,-114.1098687,1028.900024,17.450771,3.900000,178.996124,1645820221999,0.2962142,1.0,622256808256541,1.5350341
Fix,GPS,46.6016096,-114.1098715,1019.612895,17.605566,3.859260,179.070892,1645820222999,0.32156643,1.0,622257808943228,3.0
Fix,FLP,46.6016096,-114.1098678,1027.599976,17.604887,3.900000,179.000000,1645820222999,0.32156643,1.0,622257808943228,1.5454415
Fix,GPS,46.6014512,-114.1098681,1019.690605,17.501066,3.859412,178.954819,1645820223999,0.32808593,1.0,622258814302766,3.0
Fix,FLP,46.6014507,-114.1098657,1027.599976,17.501530,3.900000,178.003967,1645820223999,0.32808593,1.0,622258814302766,1.5558516
Fix,GPS,46.6012949,-114.1098652,1019.932227,17.624615,3.859563,178.553604,1645820224999,0.30354953,1.0,622259810429516,3.0
Fix,FLP,46.6012944,-114.1098611,1027.599976,17.624128,3.900000,178.000031,1645820224999,0.30354953,1.0,622259810429516,1.5650558
Fix,GPS,46.6011369,-114.1098590,1020.006189,17.682575,3.859715,178.219116,1645820225999,0.32800245,1.0,622260810055615,3.0
Fix,FLP,46.6011364,-114.1098557,1027.599976,17.682306,3.900000,178.000015,1645820225999,0.32800245,1.0,622260810055615,1.5750521
Fix,GPS,46.6009793,-114.1098505,1020.321679,17.544327,3.859867,177.655716,1645820226999,0.33635843,1.0090971,622261818409416,3.0
Fix,FLP,46.6009775,-114.1098489,1027.599976,17.544973,3.900000,177.004044,1645820226999,0.33635843,1.0090971,622261818409416,1.5851356
Fix,GPS,46.6008253,-114.1098397,1020.941240,17.019979,3.860019,177.612900,1645820227999,0.32207057,1.0,622262814191684,3.0
Fix,FLP,46.6008227,-114.1098382,1027.599976,17.022305,3.900000,177.000076,1645820227999,0.32207057,1.0,622262814191684,1.5950935
Fix,GPS,46.6006758,-114.1098293,1021.673773,16.494692,3.860171,177.444672,1645820228999,0.3109439,1.0032336,622263815715325,3.0
Fix,FLP,46.6006723,-114.1098277,1028.900024,16.496845,3.900000,177.000061,1645820228999,0.3109439,1.0032336,622263815715325,1.6051087
Fix,GPS,46.6005316,-114.1098187,1022.205394,15.775127,3.860323,177.495148,1645820229999,0.31957856,1.0718967,622264810955438,3.0
Fix,FLP,46.6005278,-114.1098175,1028.900024,15.778280,3.900000,177.000092,1645820229999,0.31957856,1.0718967,622264810955438,1.615061
Fix,GPS,46.6003986,-114.1098086,1022.628503,14.913928,3.860475,177.568634,1645820230999,0.31343785,1.1096783,622265812015863,3.0
Fix,FLP,46.6003916,-114.1098075,1028.900024,14.917513,3.900000,177.000107,1645820230999,0.31343785,1.1096783,622265812015863,1.6250716
Fix,GPS,46.6002703,-114.1098013,1022.912369,14.567760,3.860626,177.708084,1645820231999,0.31527144,1.1566596,622266810576289,3.0
Fix,FLP,46.6002634,-114.1097991,1028.900024,14.569227,3.900000,177.000046,1645820231999,0.31527144,1.1566596,622266810576289,1.6350573
Fix,GPS,46.6001418,-114.1097944,1023.107345,14.656093,3.860779,178.269669,1645820232999,0.33329824,1.1998322,622267809999792,3.0
Fix,FLP,46.6001367,-114.1097915,1028.900024,14.655655,3.900000,177.996017,1645820232999,0.33329824,1.1998322,622267809999792,1.6450516
Fix,GPS,46.6000104,-114.1097874,1023.165706,15.194039,3.860930,178.560883,1645820233999,0.3153873,1.1242684,622268800272619,3.0
Fix,FLP,46.6000080,-114.1097860,1028.900024,15.191715,3.900000,177.999954,1645820233999,0.3153873,1.1242684,622268800272619,1.6549543
Fix,GPS,46.5998712,-114.1097808,1023.417641,15.546462,3.861083,178.056549,1645820234999,0.3017848,1.0792285,622269808869503,3.0
Fix,FLP,46.5998707,-114.1097798,1028.900024,15.545111,3.900000,178.000000,1645820234999,0.3017848,1.0792285,622269808869503,1.6594846
Fix,GPS,46.5997287,-114.1097725,1023.709573,15.511813,3.861235,177.820877,1645820235999,0.31658426,1.1093094,622270812057329,3.0
Fix,FLP,46.5997297,-114.1097726,1028.900024,15.511951,3.900000,177.003830,1645820235999,0.31658426,1.1093094,622270812057329,1.6750721
Fix,GPS,46.5995900,-114.1097655,1024.043518,15.235011,3.861387,178.164536,1645820236999,0.31840554,1.1315691,622271810719805,3.0
Fix,FLP,46.5995903,-114.1097636,1028.900024,15.236194,3.900000,177.996109,1645820236999,0.31840554,1.1315691,622271810719805,1.6850587
Fix,GPS,46.5994521,-114.1097602,1024.093216,15.227918,3.861539,178.061768,1645820237999,0.3144036,1.117734,622272818773232,3.0
Fix,FLP,46.5994521,-114.1097582,1028.900024,15.227952,3.900000,178.000000,1645820237999,0.3144036,1.117734,622272818773232,1.6951393
Fix,GPS,46.5993140,-114.1097544,1024.205704,15.290457,3.861692,178.540955,1645820238999,0.2937739,1.0655086,622273813962482,3.0
Fix,FLP,46.5993150,-114.1097527,1028.900024,15.290227,3.900000,178.000000,1645820238999,0.2937739,1.0655086,622273813962482,1.7050911
Fix,GPS,46.5991770,-114.1097509,1024.353358,15.421988,3.861844,178.982651,1645820239999,0.3032805,1.0348756,622274818949828,3.0
Fix,FLP,46.5991769,-114.1097480,1028.900024,15.421478,3.900000,178.000000,1645820239999,0.3032805,1.0348756,622274818949828,1.715141
Fix,GPS,46.5990384,-114.1097478,1024.656105,15.488986,3.861996,178.810181,1645820240999,0.30776492,1.0635562,622275814492960,3.0
Fix,FLP,46.5990386,-114.1097440,1028.900024,15.488712,3.900000,178.000000,1645820240999,0.30776492,1.0635562,622275814492960,1.7250965
Fix,GPS,46.5988971,-114.1097437,1024.970553,15.799990,3.862149,178.622360,1645820241999,0.281877,1.0,622276815139852,3.0
Fix,FLP,46.5988983,-114.1097400,1028.900024,15.798941,3.900000,178.000000,1645820241999,0.281877,1.0,622276815139852,1.7351029
Fix,GPS,46.5987535,-114.1097394,1025.172865,16.102543,3.862301,178.620132,1645820242999,0.29275665,1.0,622277814439087,3.0
Fix,FLP,46.5987550,-114.1097357,1028.900024,16.101437,3.900000,178.000000,1645820242999,0.29275665,1.0,622277814439087,1.745096
Fix,GPS,46.5986084,-114.1097351,1025.214339,16.179249,3.862453,178.837265,1645820243999,0.2970128,1.0,622278817413941,3.0
Fix,FLP,46.5986092,-114.1097314,1028.900024,16.178959,3.900000,178.000000,1645820243999,0.2970128,1.0,622278817413941,1.7551256
Fix,GPS,46.5984617,-114.1097306,1025.292114,16.285612,3.862606,178.665756,1645820244999,0.2991156,1.0,622279810773764,3.0
Fix,FLP,46.5984633,-114.1097270,1028.900024,16.285204,3.900000,178.000000,1645820244999,0.2991156,1.0,622279810773764,1.7650592
Fix,GPS,46.5983124,-114.1097267,1025.504539,16.424128,3.862759,178.704361,1645820245999,0.30056855,1.0,622280814066611,3.0
Fix,FLP,46.5983146,-114.1097227,1028.900024,16.423601,3.900000,178.000000,1645820245999,0.30056855,1.0,622280814066611,1.7750922
Fix,GPS,46.5981641,-114.1097245,1025.476020,16.666666,3.862912,178.835785,1645820246999,0.30432317,1.0,622281816884198,3.0
Fix,FLP,46.5981654,-114.1097194,1028.900024,16.665716,3.900000,178.000000,1645820246999,0.30432317,1.0,622281816884198,1.7851204
Fix,GPS,46.5980141,-114.1097223,1025.216564,16.729452,3.863065,178.592667,1645820247999,0.31401822,1.0,622282814395714,3.0
Fix,FLP,46.5980151,-114.1097165,1028.900024,16.729185,3.900000,178.000015,1645820247999,0.31401822,1.0,622282814395714,1.7950954
Fix,GPS,46.5978659,-114.1097173,1024.904883,16.773846,3.863218,178.241348,1645820248999,0.30127862,1.0,622283814068037,3.0
Fix,FLP,46.5978652,-114.1097126,1028.900024,16.773672,3.900000,178.000015,1645820248999,0.30127862,1.0,622283814068037,1.8050922
Fix,GPS,46.5977133,-114.1097098,1024.539149,16.955482,3.863370,178.671051,1645820249999,0.29345694,1.0,622284814411503,3.0
Fix,FLP,46.5977139,-114.1097071,1028.900024,16.954817,3.900000,178.000015,1645820249999,0.29345694,1.0,622284814411503,1.8150957
Fix,GPS,46.5975589,-114.1097051,1024.214029,17.146326,3.863523,178.857483,1645820250999,0.2895325,1.0,622285798941654,3.0
Fix,FLP,46.5975616,-114.1097020,1028.900024,17.145624,3.900000,178.000015,1645820250999,0.2895325,1.0,622285798941654,1.8249409
Fix,GPS,46.5974045,-114.1096991,1023.859567,17.138943,3.863676,178.691772,1645820251999,0.28933218,1.0,622286819512496,3.0
Fix,FLP,46.5974043,-114.1096963,1028.900024,17.138966,3.900000,178.000015,1645820251999,0.28933218,1.0,622286819512496,1.8351467
Fix,GPS,46.5972507,-114.1096912,1023.540082,17.149122,3.863829,178.325577,1645820252999,0.27916345,1.0,622287813017746,3.0
Fix,FLP,46.5972510,-114.1096897,1028.900024,17.149088,3.900000,178.000000,1645820252999,0.27916345,1.0,622287813017746,1.8450817
Fix,GPS,46.5970964,-114.1096844,1023.194576,16.970955,3.863983,177.936829,1645820253999,0.27609292,1.0,622288816322149,3.0
Fix,FLP,46.5970963,-114.1096830,1028.900024,16.971514,3.900000,177.003738,1645820253999,0.27609292,1.0,622288816322149,1.8495592
Fix,GPS,46.5969441,-114.1096752,1022.888651,16.937698,3.864136,178.006393,1645820254999,0.27815375,1.0,622289816122158,3.0
Fix,FLP,46.5969440,-114.1096731,1028.900024,16.937805,3.900000,177.996292,1645820254999,0.27815375,1.0,622289816122158,1.8651128
Fix,GPS,46.5967910,-114.1096682,1022.864623,16.975874,3.864288,178.849640,1645820255999,0.2852957,1.0,622290808023932,3.0
Fix,FLP,46.5967920,-114.1096667,1028.900024,16.975740,3.900000,178.000000,1645820255999,0.2852957,1.0,622290808023932,1.8750318
Fix,GPS,46.5966365,-114.1096640,1022.758048,17.115438,3.864442,179.260483,1645820256999,0.29442868,1.0,622291808620206,3.0
Fix,FLP,46.5966380,-114.1096612,1032.393860,17.114916,3.900000,178.996246,1645820256999,0.29442868,1.0,622291808620206,1.8858415
Fix,NLP,46.5967331,-114.1109788,1041.599976,0.000000,135.600006,0.000000,1645820257322,0.0,0.0,622292033000000,1.3333334
Fix,FLP,46.5966103,-114.1096611,1032.393860,17.113689,4.386000,178.996506,1645820257323,0.29442868,1.0,622292033000000,1.209716
Fix,GPS,46.5964799,-114.1096583,1022.484428,17.400064,3.864595,179.195724,1645820257999,0.29118007,1.0,622292815699877,3.0
Fix,FLP,46.5964854,-114.1096581,1032.349471,17.398643,4.386000,179.000000,1645820257999,0.29118007,1.0,622292815699877,1.213716
Fix,GPS,46.5963223,-114.1096505,1022.182580,17.666332,3.864748,178.233978,1645820258999,0.29386806,1.0,622293821364591,3.0
Fix,FLP,46.5963254,-114.1096525,1032.291993,17.665350,4.386000,178.003937,1645820258999,0.29386806,1.0,622293821364591,1.2234396
Fix,GPS,46.5961650,-114.1096415,1021.899131,17.407190,3.864902,178.096405,1645820259999,0.31830332,1.0,622294809007333,3.0
Fix,FLP,46.5961670,-114.1096432,1032.291993,17.408333,4.316000,178.000015,1645820259999,0.31830332,1.0,622294809007333,1.2388717
Fix,GPS,46.5960120,-114.1096326,1021.810582,17.068188,3.865055,178.067459,1645820260999,0.31118205,1.0,622295808837086,3.0
Fix,FLP,46.5960111,-114.1096341,1032.237931,17.069586,4.386000,178.000015,1645820260999,0.31118205,1.0,622295808837086,1.24887
Fix,GPS,46.5958591,-114.1096262,1021.316395,17.174778,3.865208,178.631271,1645820261999,0.31033427,1.0,622296806952321,3.0
Fix,FLP,46.5958584,-114.1096262,1032.291993,17.174345,4.316000,178.000000,1645820261999,0.31033427,1.0,622296806952321,1.2588512
Fix,GPS,46.5957040,-114.1096196,1020.944684,17.611290,3.865361,178.583115,1645820262999,0.29299277,1.0,622297810785614,3.0
Fix,FLP,46.5957037,-114.1096189,1032.291993,17.609705,3.900000,178.000015,1645820262999,0.29299277,1.0,622297810785614,1.2688894
Fix,GPS,46.5955441,-114.1096145,1020.582752,18.153677,3.865515,177.541275,1645820263999,0.30084226,1.0,622298816269664,3.0
Fix,FLP,46.5955443,-114.1096125,1032.291993,18.151587,3.900000,177.004135,1645820263999,0.30084226,1.0,622298816269664,1.2789444
Fix,GPS,46.5953765,-114.1096045,1019.865264,18.595825,3.865669,178.125015,1645820264999,0.28508544,1.0,622299801969086,3.0
Fix,FLP,46.5953803,-114.1096021,1032.291993,18.594250,3.900000,177.995590,1645820264999,0.28508544,1.0,622299801969086,1.2888013
Fix,GPS,46.5952078,-114.1095979,1019.492284,18.692377,3.865822,178.452515,1645820265999,0.29190314,1.0,622300822975964,3.0
Fix,FLP,46.5952088,-114.1095954,1032.291993,18.692036,3.900000,178.000000,1645820265999,0.29190314,1.0,622300822975964,1.2990113
Fix,GPS,46.5950396,-114.1095919,1019.205076,18.558588,3.865976,179.078552,1645820266999,0.29888424,1.0,622301810082816,3.0
Fix,FLP,46.5950414,-114.1095892,1032.291993,18.559103,3.900000,178.995407,1645820266999,0.29888424,1.0,622301810082816,1.3088825
Fix,GPS,46.5948709,-114.1095897,1019.094116,18.506449,3.866129,178.476578,1645820267999,0.320574,1.0,622302809853447,3.0
Fix,FLP,46.5948729,-114.1095871,1032.291993,18.506670,3.900000,178.004440,1645820267999,0.320574,1.0,622302809853447,1.3188801
Fix,GPS,46.5947063,-114.1095832,1019.130148,18.546820,3.866284,177.759079,1645820268999,0.3175587,1.0,622303804288994,3.0
Fix,FLP,46.5947069,-114.1095807,1032.291993,18.546631,3.900000,177.004517,1645820268999,0.3175587,1.0,622303804288994,1.3288245
Fix,GPS,46.5945420,-114.1095756,1019.058797,18.275932,3.866437,178.162842,1645820269999,0.33679485,1.0,622304810909803,3.0
Fix,FLP,46.5945404,-114.1095714,1032.291993,18.277197,3.900000,177.995728,1645820269999,0.33679485,1.0,622304810909803,1.3388907
Fix,GPS,46.5943776,-114.1095678,1018.848707,18.173906,3.866591,178.212173,1645820270999,0.34221572,1.0,622305811504490,3.0
Fix,FLP,46.5943767,-114.1095651,1032.483217,18.174417,3.900000,178.000000,1645820270999,0.34221572,1.0,622305811504490,1.3544523
Fix,GPS,46.5942151,-114.1095604,1018.739074,17.942839,3.866745,178.031540,1645820271999,0.34517053,1.0,622306820336521,3.0
Fix,FLP,46.5942133,-114.1095584,1032.291993,17.943983,3.900000,178.000031,1645820271999,0.34517053,1.0,622306820336521,1.3645407
Fix,GPS,46.5940567,-114.1095509,1018.527317,17.820250,3.866899,178.555267,1645820272999,0.32683304,1.0,622307818940241,3.0
Fix,FLP,46.5940542,-114.1095505,1032.291993,17.820807,3.900000,178.000000,1645820272999,0.32683304,1.0,622307818940241,1.3745267
Fix,GPS,46.5938971,-114.1095415,1018.673762,17.594194,3.876366,177.783203,1645820273999,0.34855145,1.0373539,622308816761164,3.0
Fix,FLP,46.5938955,-114.1095420,1032.291993,17.595364,3.900000,177.004425,1645820273999,0.34855145,1.0373539,622308816761164,1.3845049
Fix,GPS,46.5937361,-114.1095334,1018.707730,17.410103,3.876570,177.724594,1645820274999,0.3298013,1.0100404,622309813576513,3.0
Fix,FLP,46.5937371,-114.1095315,1032.291993,17.410965,3.900000,177.000046,1645820274999,0.3298013,1.0100404,622309813576513,1.3944731
Fix,GPS,46.5935764,-114.1095249,1018.337629,17.480341,3.876776,178.416245,1645820275999,0.30959776,1.0,622310819146379,3.0
Fix,FLP,46.5935783,-114.1095219,1032.291993,17.480053,3.900000,177.996109,1645820275999,0.30959776,1.0,622310819146379,1.4045287
Fix,GPS,46.5934199,-114.1095194,1017.974312,17.407425,3.867514,178.601730,1645820276999,0.3141678,1.0,622311818041928,3.0
Fix,FLP,46.5934206,-114.1095164,1032.291993,17.407732,3.900000,178.000000,1645820276999,0.3141678,1.0,622311818041928,1.4145176
Fix,GPS,46.5932649,-114.1095153,1017.726775,17.308235,3.867669,178.416962,1645820277999,0.3227617,1.0028425,622312815349098,3.0
Fix,FLP,46.5932647,-114.1095115,1032.483217,17.308678,3.900000,178.000015,1645820277999,0.3227617,1.0028425,622312815349098,1.4244907
Fix,GPS,46.5931064,-114.1095078,1017.970384,17.272041,3.867822,177.886673,1645820278999,0.33298194,1.003285,622313810162331,3.0
Fix,FLP,46.5931083,-114.1095055,1032.291993,17.272221,3.900000,177.003952,1645820278999,0.33298194,1.003285,622313810162331,1.4288832
Fix,GPS,46.5929487,-114.1094986,1018.127673,17.357304,3.867977,177.684647,1645820279999,0.35714334,1.0704814,622314810585345,3.0
Fix,FLP,46.5929511,-114.1094959,1032.291993,17.356850,3.900000,177.000015,1645820279999,0.35714334,1.0704814,622314810585345,1.4388875
Fix,GPS,46.5927895,-114.1094901,1018.177701,17.483068,3.854884,178.472397,1645820280999,0.3646146,1.1643708,622315805870177,3.0330079
Fix,FLP,46.5927930,-114.1094868,1032.291993,17.482344,3.900000,177.994644,1645820280999,0.3646146,1.1643708,622315805870177,1.4488404
Fix,GPS,46.5926316,-114.1094840,1018.272667,17.406792,3.868285,178.424454,1645820281999,0.35209545,1.1054267,622316816550271,3.0894175
Fix,FLP,46.5926330,-114.1094811,1032.291993,17.407185,3.900000,178.000000,1645820281999,0.35209545,1.1054267,622316816550271,1.4589471
Fix,GPS,46.5924755,-114.1094767,1017.963400,17.308895,3.868439,178.774429,1645820282999,0.3399337,1.0483592,622317816176289,3.1393328
Fix,FLP,46.5924760,-114.1094747,1032.291993,17.309378,3.900000,178.000015,1645820282999,0.3399337,1.0483592,622317816176289,1.4689434
Fix,GPS,46.5923190,-114.1094703,1017.559124,17.274565,3.868593,178.953873,1645820283999,0.3313286,1.0,622318816895447,3.1580997
Fix,FLP,46.5923197,-114.1094684,1032.291993,17.274729,3.900000,178.000015,1645820283999,0.3313286,1.0,622318816895447,1.4789506
Fix,GPS,46.5921650,-114.1094670,1017.309805,17.313648,3.868748,178.815491,1645820284999,0.32850468,1.0451921,622319816367737,3.1264389
Fix,FLP,46.5921647,-114.1094634,1032.291993,17.313469,3.900000,178.000015,1645820284999,0.32850468,1.0451921,622319816367737,1.4889452
Fix,GPS,46.5920084,-114.1094607,1017.309844,17.352148,3.868902,177.978577,1645820285999,0.31919613,1.0312951,622320813330872,3.1350703
Fix,FLP,46.5920090,-114.1094578,1032.291993,17.351973,3.900000,177.004181,1645820285999,0.31919613,1.0312951,622320813330872,1.498915
Fix,GPS,46.5918520,-114.1094539,1017.524946,17.492779,3.869056,178.214493,1645820286999,0.3126163,1.0,622321812597352,3.1454387
Fix,FLP,46.5918526,-114.1094495,1032.291993,17.492182,3.900000,177.996094,1645820286999,0.3126163,1.0,622321812597352,1.5089076
Fix,GPS,46.5916965,-114.1094480,1017.349515,17.453547,3.869210,178.395065,1645820287999,0.302526,1.0,622322819291201,3.102068
Fix,FLP,46.5916953,-114.1094444,1032.483217,17.453693,3.900000,178.000000,1645820287999,0.302526,1.0,622322819291201,1.5245302
Fix,GPS,46.5915414,-114.1094412,1016.978274,17.433414,3.869365,178.513107,1645820288999,0.3069961,1.0,622323821322939,3.0461242
Fix,FLP,46.5915395,-114.1094385,1032.483217,17.433493,3.900000,178.000015,1645820288999,0.3069961,1.0,622323821322939,1.5345504
Fix,GPS,46.5913861,-114.1094336,1016.579774,17.280422,3.869519,178.638901,1645820289999,0.32539737,1.0440183,622324800789167,3.030007
Fix,FLP,46.5913860,-114.1094320,1028.900024,17.281139,3.900000,178.000015,1645820289999,0.32539737,1.0440183,622324800789167,1.5448272
Fix,GPS,46.5912322,-114.1094297,1016.695042,17.251987,3.869674,178.172470,1645820290999,0.36747465,1.1166806,622325811098005,3.0546927
Fix,FLP,46.5912304,-114.1094266,1028.900024,17.252146,3.900000,178.000015,1645820290999,0.36747465,1.1166806,622325811098005,1.5552272
Fix,GPS,46.5910752,-114.1094243,1016.974924,17.259531,3.869829,177.815826,1645820291999,0.3338644,1.0649093,622326817548649,3.1172252
Fix,FLP,46.5910747,-114.1094212,1028.900024,17.259489,3.900000,177.004333,1645820291999,0.3338644,1.0649093,622326817548649,1.5645127
Fix,GPS,46.5909202,-114.1094165,1017.061900,17.324900,3.869983,178.063263,1645820292999,0.3276134,1.026377,622327814286361,3.1775587
Fix,FLP,46.5909201,-114.1094126,1028.900024,17.324583,3.900000,177.995926,1645820292999,0.3276134,1.026377,622327814286361,1.5744802
Fix,GPS,46.5907668,-114.1094100,1016.937475,17.306780,3.870138,178.312469,1645820293999,0.36820674,1.1049378,622328816057561,3.2309043
Fix,FLP,46.5907653,-114.1094070,1028.900024,17.306877,3.900000,178.000000,1645820293999,0.36820674,1.1049378,622328816057561,1.5844978
Fix,GPS,46.5906111,-114.1094036,1017.277578,17.115152,4.020987,178.828140,1645820294999,0.383701,1.1642469,622329817650335,3.302344
Fix,FLP,46.5906102,-114.1094011,1028.900024,17.116341,3.924000,178.000046,1645820294999,0.383701,1.1642469,622329817650335,1.5945138
Fix,GPS,46.5904577,-114.1093928,1017.037805,17.051216,3.870447,179.195190,1645820295999,0.3456065,1.0895469,622330808641383,3.318523
Fix,FLP,46.5904577,-114.1093931,1032.086012,17.051535,3.920000,178.995438,1645820295999,0.3456065,1.0895469,622330808641383,1.6099794
Fix,GPS,46.5903045,-114.1093876,1017.059542,16.974051,3.890646,178.940216,1645820296999,0.3474865,1.1335498,622331811276963,3.3709238
Fix,FLP,46.5903041,-114.1093885,1032.086012,16.974434,3.920000,178.004761,1645820296999,0.3474865,1.1335498,622331811276963,1.6200056
Fix,GPS,46.5901496,-114.1093809,1017.408704,17.119474,4.029678,178.424179,1645820297999,0.3610033,1.1544646,622332812893989,3.4360635
Fix,FLP,46.5901505,-114.1093808,1032.086012,17.118679,3.941000,178.000015,1645820297999,0.3610033,1.1544646,622332812893989,1.6300218
